[{"_id":"LM-2","type":"fighter1","name":"Ferrari","info":{"pcode":"2054","city":"Chézard-St-Martin","d":"Val-de-Ruz","c":"NE","lat":"47.066","lng":"6.933"}},{"_id":"LM-4","type":"fighter1","name":"cocober","info":{"pcode":"3979groneä"}},{"_id":"LM-5","type":"fighter1","name":"creation Clément","info":{"pcode":"1180","city":"Rolle","d":"Rolle","c":"VD","lat":"46.458","lng":"6.336"}},{"_id":"LM-6","type":"fighter1","name":"chasseur","info":{"pcode":"1423","city":"Fontanezier","d":"Tévenon","c":"VD","lat":"46.853","lng":"6.653"}},{"_id":"LM-7","type":"biplane1","name":"d432","info":{"pcode":"1423","city":"Fontanezier","d":"Tévenon","c":"VD","lat":"46.853","lng":"6.653"}},{"_id":"LM-9","type":"plane1","name":"grummim maker","info":{"pcode":"1806","city":"St-Légier-La Chiésaz","d":"Saint-Légier-La Chiésaz","c":"VD","lat":"46.471","lng":"6.884"}},{"_id":"LM-10","type":"plane1","name":"Microclub_fly","info":{"pcode":"1806","city":"St-Légier-La Chiésaz","d":"Saint-Légier-La Chiésaz","c":"VD","lat":"46.471","lng":"6.884"}},{"_id":"LM-11","type":"plane1","name":"antoine","info":{"pcode":"1423","city":"Fontanezier","d":"Tévenon","c":"VD","lat":"46.853","lng":"6.653"}},{"_id":"LM-12","type":"plane1","name":"camila","info":{"pcode":"1025","city":"St-Sulpice VD","d":"Saint-Sulpice (VD)","c":"VD","lat":"46.509","lng":"6.560"}},{"_id":"LM-13","type":"plane1","name":"adrian","info":{"pcode":"1025","city":"St-Sulpice VD","d":"Saint-Sulpice (VD)","c":"VD","lat":"46.509","lng":"6.560"}},{"_id":"LM-70","type":"plane1","name":"helyan","info":{"pcode":"0"}},{"_id":"LM-1","type":"fighter1","name":"Marc","info":{"pcode":"2000","city":"Neuchâtel","d":"Neuchâtel","c":"NE","lat":"46.992","lng":"6.926"}},{"_id":"LM-3","type":"biplane1","name":"air jordan","info":{"pcode":"rolle"}},{"_id":"LM-14","type":"fighter1","name":"Air14","info":{"pcode":"1405","city":"Pomy","d":"Pomy","c":"VD","lat":"46.759","lng":"6.669"}},{"_id":"LM-15","type":"fighter1","name":"air force","info":{"pcode":"9999","city":"Bielersee","d":"Bielersee (BE)","c":"BE","lat":"47.087","lng":"7.178"}},{"_id":"LM-16","type":"fighter1","name":"avion de guere","info":{"pcode":"1036","city":"Sullens","d":"Sullens","c":"VD","lat":"46.594","lng":"6.567"}},{"_id":"LM-17","type":"biplane1","name":"THEO","info":{"pcode":"1270","city":"Trélex","d":"Trélex","c":"VD","lat":"46.413","lng":"6.203"}},{"_id":"LM-18","type":"fighter1","name":"l'avion bleu","info":{"pcode":"1010","city":"Lausanne","d":"Lausanne","c":"VD","lat":"46.536","lng":"6.658"}},{"_id":"LM-20","type":"plane1","name":"bd","info":{"pcode":"1023","city":"Crissier","d":"Crissier","c":"VD","lat":"46.556","lng":"6.578"}},{"_id":"LM-24","type":"plane1","name":"Cloé","info":{"pcode":"1196","city":"Gland","d":"Gland","c":"VD","lat":"46.423","lng":"6.265"}},{"_id":"LM-39","type":"plane1","name":"Lou fly","info":{"pcode":"1004","city":"Lausanne","d":"Lausanne","c":"VD","lat":"46.528","lng":"6.618"}},{"_id":"LM-19","type":"fighter1","name":"f-22 cat","info":{"pcode":"1260","city":"Nyon","d":"Nyon","c":"VD","lat":"46.380","lng":"6.238"}},{"_id":"LM-21","type":"biplane1","name":"diego","info":{"pcode":"1350","city":"Orbe","d":"Orbe","c":"VD","lat":"46.724","lng":"6.533"}},{"_id":"LM-22","type":"fighter1","name":"marina","info":{"pcode":"1350","city":"Orbe","d":"Orbe","c":"VD","lat":"46.724","lng":"6.533"}},{"_id":"LM-23","type":"fighter1","name":"tom","info":{"pcode":"1196","city":"Gland","d":"Gland","c":"VD","lat":"46.423","lng":"6.265"}},{"_id":"LM-25","type":"fighter1","name":"Manis","info":{"pcode":"1170","city":"Aubonne","d":"Aubonne","c":"VD","lat":"46.496","lng":"6.392"}},{"_id":"LM-26","type":"fighter1","name":"Yades","info":{"pcode":"1170","city":"Aubonne","d":"Aubonne","c":"VD","lat":"46.496","lng":"6.392"}},{"_id":"LM-27","type":"fighter1","name":"lio","info":{"pcode":"1023","city":"Crissier","d":"Crissier","c":"VD","lat":"46.556","lng":"6.578"}},{"_id":"LM-28","type":"fighter1","name":"werlad","info":{"pcode":"1272","city":"Genolier","d":"Genolier","c":"VD","lat":"46.434","lng":"6.217"}},{"_id":"LM-29","type":"fighter1","name":"Ferrari","info":{"pcode":"2054","city":"Chézard-St-Martin","d":"Val-de-Ruz","c":"NE","lat":"47.066","lng":"6.933"}},{"_id":"LM-30","type":"fighter1","name":"flowerflay","info":{"pcode":"1272","city":"Genolier","d":"Genolier","c":"VD","lat":"46.434","lng":"6.217"}},{"_id":"LM-31","type":"plane1","name":"Clonasa","info":{"pcode":"1025","city":"St-Sulpice VD","d":"Saint-Sulpice (VD)","c":"VD","lat":"46.509","lng":"6.560"}},{"_id":"LM-32","type":"fighter1","name":"AC-11","info":{"pcode":"1218","city":"Le Grand-Saconnex","d":"Le Grand-Saconnex","c":"GE","lat":"46.232","lng":"6.124"}},{"_id":"LM-33","type":"fighter1","name":"hc-15","info":{"pcode":"1197","city":"Prangins","d":"Prangins","c":"VD","lat":"46.394","lng":"6.249"}},{"_id":"LM-34","type":"fighter1","name":"no-11","info":{"pcode":"1111"}},{"_id":"LM-35","type":"fighter1","name":"meugli","info":{"pcode":"1266","city":"Duillier","d":"Duillier","c":"VD","lat":"46.409","lng":"6.233"}},{"_id":"LM-36","type":"fighter1","name":"SL-600","info":{"pcode":"1196","city":"Gland","d":"Gland","c":"VD","lat":"46.423","lng":"6.265"}},{"_id":"LM-38","type":"biplane1","name":"CYCL-74","info":{"pcode":"74160"}},{"_id":"LM-37","type":"fighter1","name":"AIGLE 324-0087","info":{"pcode":"1114","city":"Colombier VD","d":"Echichens","c":"VD","lat":"46.556","lng":"6.475"}},{"_id":"LM-40","type":"fighter1","name":"Lennie","info":{"pcode":"1260","city":"Nyon","d":"Nyon","c":"VD","lat":"46.380","lng":"6.238"}},{"_id":"LM-41","type":"fighter1","name":"LE SYSTEME ULTRON","info":{"pcode":"1269","city":"Bassins","d":"Bassins","c":"VD","lat":"46.462","lng":"6.231"}},{"_id":"LM-42","type":"fighter1","name":"Mahé","info":{"pcode":"1260","city":"Nyon","d":"Nyon","c":"VD","lat":"46.380","lng":"6.238"}},{"_id":"LM-43","type":"biplane1","name":"Morgane","info":{"pcode":"1845","city":"Noville","d":"Noville","c":"VD","lat":"46.380","lng":"6.898"}},{"_id":"LM-44","type":"biplane1","name":"Mael","info":{"pcode":"1844","city":"Villeneuve VD","d":"Villeneuve (VD)","c":"VD","lat":"46.396","lng":"6.925"}},{"_id":"LM-45","type":"fighter1","name":"jon","info":{"pcode":"1004","city":"Lausanne","d":"Lausanne","c":"VD","lat":"46.528","lng":"6.618"}},{"_id":"LM-65","type":"plane1","name":"Lény","info":{"pcode":"1971","city":"Champlan (Grimisuat)","d":"Grimisuat","c":"VS","lat":"46.246","lng":"7.372"}},{"_id":"LM-46","type":"biplane1","name":"Evangeline","info":{"pcode":"1263","city":"Crassier","d":"Crassier","c":"VD","lat":"46.374","lng":"6.163"}},{"_id":"LM-47","type":"fighter1","name":"evan","info":{"pcode":"1971","city":"Champlan (Grimisuat)","d":"Grimisuat","c":"VS","lat":"46.246","lng":"7.372"}},{"_id":"LM-48","type":"fighter1","name":"fonceur 9ooo","info":{"pcode":"1260","city":"Nyon","d":"Nyon","c":"VD","lat":"46.380","lng":"6.238"}},{"_id":"LM-49","type":"biplane1","name":"s-905","info":{"pcode":"1260","city":"Nyon","d":"Nyon","c":"VD","lat":"46.380","lng":"6.238"}},{"_id":"LM-50","type":"biplane1","name":"aline1","info":{"pcode":"§227"}},{"_id":"LM-51","type":"fighter1","name":"mario04","info":{"pcode":"confignon"}},{"_id":"LM-52","type":"biplane1","name":"MATTHIAS","info":{"pcode":"1814","city":"La Tour-de-Peilz","d":"La Tour-de-Peilz","c":"VD","lat":"46.453","lng":"6.857"}},{"_id":"LM-53","type":"fighter1","name":"f-32","info":{"pcode":"1260","city":"Nyon","d":"Nyon","c":"VD","lat":"46.380","lng":"6.238"}},{"_id":"LM-54","type":"biplane1","name":"rex","info":{"pcode":"2054","city":"Chézard-St-Martin","d":"Val-de-Ruz","c":"NE","lat":"47.066","lng":"6.933"}},{"_id":"LM-55","type":"fighter1","name":"Helyan","info":{"pcode":"1260","city":"Nyon","d":"Nyon","c":"VD","lat":"46.380","lng":"6.238"}},{"_id":"LM-56","type":"fighter1","name":"loulou","info":{"pcode":"1232","city":"Confignon","d":"Confignon","c":"GE","lat":"46.174","lng":"6.084"}},{"_id":"LM-57","type":"plane1","name":"Greg's plane","info":{"pcode":"1260","city":"Nyon","d":"Nyon","c":"VD","lat":"46.380","lng":"6.238"}},{"_id":"LM-58","type":"biplane1","name":"Samuel","info":{"pcode":"Yverdon"}},{"_id":"LM-60","type":"plane1","name":"PEDRO","info":{"pcode":"1260","city":"Nyon","d":"Nyon","c":"VD","lat":"46.380","lng":"6.238"}},{"_id":"LM-61","type":"biplane1","name":"printok","info":{"pcode":"0000"}},{"_id":"LM-62","type":"biplane1","name":"LORIS","info":{"pcode":"1228","city":"Plan-les-Ouates","d":"Plan-les-Ouates","c":"GE","lat":"46.168","lng":"6.115"}},{"_id":"LM-63","type":"fighter1","name":"spacemake","info":{"pcode":"1815","city":"Clarens","d":"Montreux","c":"VD","lat":"46.442","lng":"6.892"}},{"_id":"LM-64","type":"fighter1","name":"MATHIEU","info":{"pcode":"1228","city":"Plan-les-Ouates","d":"Plan-les-Ouates","c":"GE","lat":"46.168","lng":"6.115"}},{"_id":"LM-66","type":"biplane1","name":"Malou","info":{"pcode":"1005","city":"Lausanne","d":"Lausanne","c":"VD","lat":"46.519","lng":"6.642"}},{"_id":"LM-68","type":"biplane1","name":"gr0m","info":{"pcode":"1423","city":"Fontanezier","d":"Tévenon","c":"VD","lat":"46.853","lng":"6.653"}},{"_id":"LM-69","type":"fighter1","name":"Boigue","info":{"pcode":"2054","city":"Chézard-St-Martin","d":"Val-de-Ruz","c":"NE","lat":"47.066","lng":"6.933"}},{"_id":"LM-71","type":"biplane1","name":"dewa","info":{"pcode":"1110","city":"Morges","d":"Morges","c":"VD","lat":"46.510","lng":"6.500"}},{"_id":"LM-72","type":"fighter1","name":"demo","info":{"pcode":"2000","city":"Neuchâtel","d":"Neuchâtel","c":"NE","lat":"46.992","lng":"6.926"}},{"_id":"LM-73","type":"biplane1","name":"4 89","info":{"pcode":"1290","city":"Chavannes-des-Bois","d":"Chavannes-des-Bois","c":"VD","lat":"46.316","lng":"6.133"}},{"_id":"LM-74","type":"plane1","name":"3456","info":{"pcode":"1290","city":"Chavannes-des-Bois","d":"Chavannes-des-Bois","c":"VD","lat":"46.316","lng":"6.133"}},{"_id":"LM-75","type":"biplane1","name":"jmm","info":{"pcode":"1853 Yvorne"}},{"_id":"LM-76","type":"plane1","name":"leo 0103","info":{"pcode":"74160"}},{"_id":"LM-77","type":"biplane1","name":"fix","info":{"pcode":"0000"}},{"_id":"LM-78","type":"plane1","name":"le pamari","info":{"pcode":"1297","city":"Founex","d":"Founex","c":"VD","lat":"46.332","lng":"6.192"}},{"_id":"LM-80","type":"fighter1","name":"Carglouch","info":{"pcode":"1134","city":"Chigny","d":"Chigny","c":"VD","lat":"46.520","lng":"6.477"}},{"_id":"LM-81","type":"fighter1","name":"Romain","info":{"pcode":"montpreveyres"}},{"_id":"LM-82","type":"fighter1","name":"dorian","info":{"pcode":"vouvry"}},{"_id":"LM-83","type":"fighter1","name":"Dr.Boom","info":{"pcode":"1110","city":"Morges","d":"Morges","c":"VD","lat":"46.510","lng":"6.500"}},{"_id":"LM-85","type":"biplane1","name":"fablab","info":{"pcode":"0000"}},{"_id":"LM-86","type":"plane1","name":"Aliane","info":{"pcode":"1262","city":"Eysins","d":"Eysins","c":"VD","lat":"46.379","lng":"6.204"}},{"_id":"LM-87","type":"fighter1","name":"cyril","info":{"pcode":"1262","city":"Eysins","d":"Eysins","c":"VD","lat":"46.379","lng":"6.204"}},{"_id":"LM-88","type":"fighter1","name":"léan","info":{"pcode":"1269","city":"Bassins","d":"Bassins","c":"VD","lat":"46.462","lng":"6.231"}},{"_id":"LM-89","type":"fighter1","name":"L.G13","info":{"pcode":"1175","city":"Lavigny","d":"Lavigny","c":"VD","lat":"46.500","lng":"6.404"}},{"_id":"LM-90","type":"fighter1","name":"ambre","info":{"pcode":"voury"}},{"_id":"LM-92","type":"biplane1","name":"Louka","info":{"pcode":"1269","city":"Bassins","d":"Bassins","c":"VD","lat":"46.462","lng":"6.231"}},{"_id":"LM-105","type":"plane1","name":"elisa","info":{"pcode":"1006","city":"Lausanne","d":"Lac Léman (VD)","c":"VD","lat":"46.485","lng":"6.637"}},{"_id":"LM-91","type":"fighter1","name":"Ariitea","info":{"pcode":"1261","city":"Le Vaud","d":"Le Vaud","c":"VD","lat":"46.477","lng":"6.234"}},{"_id":"LM-93","type":"fighter1","name":"Aliane","info":{"pcode":"1292","city":"Chambésy","d":"Pregny-Chambésy","c":"GE","lat":"46.241","lng":"6.139"}},{"_id":"LM-94","type":"fighter1","name":"NasAir","info":{"pcode":"1426","city":"Concise","d":"Concise","c":"VD","lat":"46.849","lng":"6.720"}},{"_id":"LM-95","type":"fighter1","name":"HPM","info":{"pcode":"1095","city":"Lutry","d":"Lutry","c":"VD","lat":"46.502","lng":"6.686"}},{"_id":"LM-96","type":"biplane1","name":"Sacha","info":{"pcode":"1262","city":"Eysins","d":"Eysins","c":"VD","lat":"46.379","lng":"6.204"}},{"_id":"LM-97","type":"plane1","name":"1Kneur","info":{"pcode":"1274","city":"Grens","d":"Grens","c":"VD","lat":"46.395","lng":"6.192"}},{"_id":"LM-98","type":"fighter1","name":"Cyril","info":{"pcode":"1262","city":"Eysins","d":"Eysins","c":"VD","lat":"46.379","lng":"6.204"}},{"_id":"LM-99","type":"fighter1","name":"Leo-1","info":{"pcode":"1180","city":"Rolle","d":"Rolle","c":"VD","lat":"46.458","lng":"6.336"}},{"_id":"LM-100","type":"fighter1","name":"helyan","info":{"pcode":"1260","city":"Nyon","d":"Nyon","c":"VD","lat":"46.380","lng":"6.238"}},{"_id":"LM-101","type":"fighter1","name":"max-1","info":{"pcode":"1180","city":"Rolle","d":"Rolle","c":"VD","lat":"46.458","lng":"6.336"}},{"_id":"LM-102","type":"fighter1","name":"TH-007","info":{"pcode":"1164","city":"Buchillon","d":"Buchillon","c":"VD","lat":"46.470","lng":"6.421"}},{"_id":"LM-103","type":"fighter1","name":"x0x","info":{"pcode":"1007","city":"Lausanne","d":"Lausanne","c":"VD","lat":"46.522","lng":"6.635"}},{"_id":"LM-104","type":"fighter1","name":"Neo Hong","info":{"pcode":"1007","city":"Lausanne","d":"Lausanne","c":"VD","lat":"46.522","lng":"6.635"}},{"_id":"LM-107","type":"fighter1","name":"Eclair","info":{"pcode":"1410","city":"Correvon","d":"Montanaire","c":"VD","lat":"46.715","lng":"6.737"}},{"_id":"LM-106","type":"plane1","name":"vishnou","info":{"pcode":"1268","city":"Begnins","d":"Begnins","c":"VD","lat":"46.440","lng":"6.251"}},{"_id":"LM-108","type":"biplane1","name":"Tonnerre","info":{"pcode":"1410","city":"Correvon","d":"Montanaire","c":"VD","lat":"46.715","lng":"6.737"}},{"_id":"LM-109","type":"plane1","name":"mamoute","info":{"pcode":"1268","city":"Begnins","d":"Begnins","c":"VD","lat":"46.440","lng":"6.251"}},{"_id":"LM-110","type":"fighter1","name":"x0x","info":{"pcode":"1007","city":"Lausanne","d":"Lausanne","c":"VD","lat":"46.522","lng":"6.635"}},{"_id":"LM-111","type":"plane1","name":"Théo AirLines","info":{"pcode":"1580","city":"Avenches","d":"Avenches","c":"VD","lat":"46.880","lng":"7.040"}},{"_id":"LM-112","type":"biplane1","name":"Myrine plane","info":{"pcode":"1207","city":"Genève","d":"Genève","c":"GE","lat":"46.207","lng":"6.162"}},{"_id":"LM-114","type":"plane1","name":"346","info":{"pcode":"1290","city":"Chavannes-des-Bois","d":"Chavannes-des-Bois","c":"VD","lat":"46.316","lng":"6.133"}},{"_id":"LM-115","type":"biplane1","name":"le bug","info":{"pcode":"1268","city":"Begnins","d":"Begnins","c":"VD","lat":"46.440","lng":"6.251"}},{"_id":"LM-116","type":"fighter1","name":"blabla","info":{"pcode":"1260","city":"Nyon","d":"Nyon","c":"VD","lat":"46.380","lng":"6.238"}},{"_id":"LM-117","type":"fighter1","name":"STM_part","info":{"pcode":"1806","city":"St-Légier-La Chiésaz","d":"Saint-Légier-La Chiésaz","c":"VD","lat":"46.471","lng":"6.884"}},{"_id":"LM-118","type":"fighter1","name":"vl-nrl01","info":{"pcode":"1806","city":"St-Légier-La Chiésaz","d":"Saint-Légier-La Chiésaz","c":"VD","lat":"46.471","lng":"6.884"}},{"_id":"LM-119","type":"fighter1","name":"lachtractore fff","info":{"pcode":"74 160"}},{"_id":"LM-120","type":"biplane1","name":"rainbow","info":{"pcode":"1268","city":"Begnins","d":"Begnins","c":"VD","lat":"46.440","lng":"6.251"}},{"_id":"LM-121","type":"fighter1","name":"hunter","info":{"pcode":"7290"}},{"_id":"LM-122","type":"fighter1","name":"lili","info":{"pcode":"1196","city":"Gland","d":"Gland","c":"VD","lat":"46.423","lng":"6.265"}},{"_id":"LM-123","type":"fighter1","name":"Anticiterne","info":{"pcode":"1304","city":"Allens","d":"Cossonay","c":"VD","lat":"46.600","lng":"6.509"}},{"_id":"LM-124","type":"biplane1","name":"Meli","info":{"pcode":"1304","city":"Allens","d":"Cossonay","c":"VD","lat":"46.600","lng":"6.509"}},{"_id":"LM-125","type":"biplane1","name":"turquoise","info":{"pcode":"1196","city":"Gland","d":"Gland","c":"VD","lat":"46.423","lng":"6.265"}},{"_id":"LM-126","type":"biplane1","name":"multi","info":{"pcode":"1290","city":"Chavannes-des-Bois","d":"Chavannes-des-Bois","c":"VD","lat":"46.316","lng":"6.133"}},{"_id":"LM-127","type":"fighter1","name":"eclaire","info":{"pcode":"1197","city":"Prangins","d":"Prangins","c":"VD","lat":"46.394","lng":"6.249"}},{"_id":"LM-128","type":"fighter1","name":"Lucie","info":{"pcode":"1260","city":"Nyon","d":"Nyon","c":"VD","lat":"46.380","lng":"6.238"}},{"_id":"LM-129","type":"plane1","name":"ELSA","info":{"pcode":"1110","city":"Morges","d":"Morges","c":"VD","lat":"46.510","lng":"6.500"}},{"_id":"LM-130","type":"fighter1","name":"Elodie","info":{"pcode":"1260","city":"Nyon","d":"Nyon","c":"VD","lat":"46.380","lng":"6.238"}},{"_id":"LM-131","type":"plane1","name":"lili","info":{"pcode":"1880","city":"Bex","d":"Bex","c":"VD","lat":"46.251","lng":"7.012"}},{"_id":"LM-132","type":"fighter1","name":"vol no 15-298","info":{"pcode":"1163","city":"Etoy","d":"Etoy","c":"VD","lat":"46.486","lng":"6.420"}},{"_id":"LM-133","type":"fighter1","name":"R2D2","info":{"pcode":"1020","city":"Renens VD","d":"Renens (VD)","c":"VD","lat":"46.536","lng":"6.590"}},{"_id":"LM-135","type":"plane1","name":"JoJo1111","info":{"pcode":"1134","city":"Chigny","d":"Chigny","c":"VD","lat":"46.520","lng":"6.477"}},{"_id":"LM-134","type":"fighter1","name":"Eclair","info":{"pcode":"1746","city":"Prez-vers-Noréaz","d":"Prez-vers-Noréaz","c":"FR","lat":"46.785","lng":"7.015"}},{"_id":"LM-136","type":"fighter1","name":"sefa","info":{"pcode":"st genis pouilly"}},{"_id":"LM-137","type":"biplane1","name":"R2D2","info":{"pcode":"1034","city":"Boussens","d":"Boussens","c":"VD","lat":"46.603","lng":"6.582"}},{"_id":"LM-138","type":"fighter1","name":"jessi","info":{"pcode":"1260","city":"Nyon","d":"Nyon","c":"VD","lat":"46.380","lng":"6.238"}},{"_id":"LM-139","type":"fighter1","name":"lulu9","info":{"pcode":"1034","city":"Boussens","d":"Boussens","c":"VD","lat":"46.603","lng":"6.582"}},{"_id":"LM-140","type":"fighter1","name":"Clara","info":{"pcode":"1034","city":"Boussens","d":"Boussens","c":"VD","lat":"46.603","lng":"6.582"}},{"_id":"LM-141","type":"fighter1","name":"Arthur17","info":{"pcode":"1034","city":"Boussens","d":"Boussens","c":"VD","lat":"46.603","lng":"6.582"}},{"_id":"LM-142","type":"plane1","name":"kiwi","info":{"pcode":"1267","city":"Coinsins","d":"Coinsins","c":"VD","lat":"46.423","lng":"6.239"}},{"_id":"LM-143","type":"biplane1","name":"sienna","info":{"pcode":"1267","city":"Coinsins","d":"Coinsins","c":"VD","lat":"46.423","lng":"6.239"}},{"_id":"LM-144","type":"fighter1","name":"violetta","info":{"pcode":"1814","city":"La Tour-de-Peilz","d":"La Tour-de-Peilz","c":"VD","lat":"46.453","lng":"6.857"}},{"_id":"LM-145","type":"fighter1","name":"cherifchasse","info":{"pcode":"1426","city":"Concise","d":"Concise","c":"VD","lat":"46.849","lng":"6.720"}},{"_id":"LM-147","type":"fighter1","name":"Boule de Feu!!","info":{"pcode":"1410","city":"Correvon","d":"Montanaire","c":"VD","lat":"46.715","lng":"6.737"}},{"_id":"LM-148","type":"fighter1","name":"mILITAIRE ECLAIR","info":{"pcode":"1410","city":"Correvon","d":"Montanaire","c":"VD","lat":"46.715","lng":"6.737"}},{"_id":"LM-149","type":"plane1","name":"The King","info":{"pcode":"1410","city":"Correvon","d":"Montanaire","c":"VD","lat":"46.715","lng":"6.737"}},{"_id":"LM-150","type":"biplane1","name":"lol202","info":{"pcode":"1806","city":"St-Légier-La Chiésaz","d":"Saint-Légier-La Chiésaz","c":"VD","lat":"46.471","lng":"6.884"}},{"_id":"LM-151","type":"fighter1","name":"lOUI","info":{"pcode":"2054","city":"Chézard-St-Martin","d":"Val-de-Ruz","c":"NE","lat":"47.066","lng":"6.933"}},{"_id":"LM-152","type":"biplane1","name":"banana","info":{"pcode":"1296","city":"Coppet","d":"Coppet","c":"VD","lat":"46.315","lng":"6.193"}},{"_id":"LM-153","type":"fighter1","name":"MAEVA","info":{"pcode":"1273","city":"Arzier-Le Muids","d":"Arzier-Le Muids","c":"VD","lat":"46.460","lng":"6.207"}},{"_id":"LM-155","type":"fighter1","name":"CHIARA","info":{"pcode":"1273","city":"Arzier-Le Muids","d":"Arzier-Le Muids","c":"VD","lat":"46.460","lng":"6.207"}},{"_id":"LM-156","type":"plane1","name":"fly","info":{"pcode":"1260","city":"Nyon","d":"Nyon","c":"VD","lat":"46.380","lng":"6.238"}},{"_id":"LM-157","type":"fighter1","name":"Jules mégavitesse","info":{"pcode":"1163","city":"Etoy","d":"Etoy","c":"VD","lat":"46.486","lng":"6.420"}},{"_id":"LM-158","type":"plane1","name":"Sarah","info":{"pcode":"1030","city":"Bussigny","d":"Bussigny","c":"VD","lat":"46.553","lng":"6.551"}},{"_id":"LM-159","type":"fighter1","name":"cristoffer ake","info":{"pcode":"1095","city":"Lutry","d":"Lutry","c":"VD","lat":"46.502","lng":"6.686"}},{"_id":"LM-160","type":"fighter1","name":"Chasseur","info":{"pcode":"1260","city":"Nyon","d":"Nyon","c":"VD","lat":"46.380","lng":"6.238"}},{"_id":"LM-161","type":"fighter1","name":"Chasseur","info":{"pcode":"1260","city":"Nyon","d":"Nyon","c":"VD","lat":"46.380","lng":"6.238"}},{"_id":"LM-162","type":"plane1","name":"martino","info":{"pcode":"1163","city":"Etoy","d":"Etoy","c":"VD","lat":"46.486","lng":"6.420"}}]